{
    "type": "FeatureCollection",
    "features": [
      {
        "type": "Feature",
        "properties": {
          "name": "Niger"
        },
        "geometry": {
          "coordinates": [
            9.396059370344489,
            17.411107821972024
          ],
          "type": "Point"
        },
        "id": 0
      },
      {
        "type": "Feature",
        "properties": {
          "name": "Nigeria"
        },
        "geometry": {
          "coordinates": [
            8.058733028833473,
            9.645518591999434
          ],
          "type": "Point"
        },
        "id": 1
      },
      {
        "type": "Feature",
        "properties": {
          "name": "Egypt"
        },
        "geometry": {
          "coordinates": [
            29.841984452832094,
            26.28787778230968
          ],
          "type": "Point"
        },
        "id": 2
      },
      {
        "type": "Feature",
        "properties": {
          "name": "Iraq"
        },
        "geometry": {
          "coordinates": [
            43.17826690760731,
            32.967880368092565
          ],
          "type": "Point"
        },
        "id": 3
      },
      {
        "type": "Feature",
        "properties": {
          "name": "Turkey"
        },
        "geometry": {
          "coordinates": [
            34.98123392966892,
            39.00543668366939
          ],
          "type": "Point"
        },
        "id": 4
      },
      {
        "type": "Feature",
        "properties": {
          "name": "Iran"
        },
        "geometry": {
          "coordinates": [
            54.2401723820598,
            32.55115541265984
          ],
          "type": "Point"
        },
        "id": 5
      },
      {
        "type": "Feature",
        "properties": {
          "name": "Russia"
        },
        "geometry": {
          "coordinates": [
            97.0551964215876,
            62.19123849438151
          ],
          "type": "Point"
        },
        "id": 6
      },
      {
        "type": "Feature",
        "properties": {
          "name": "Norway"
        },
        "geometry": {
          "coordinates": [
            8.16152144896634,
            60.8308896563849
          ],
          "type": "Point"
        },
        "id": 7
      },
      {
        "type": "Feature",
        "properties": {
          "name": "Iceland"
        },
        "geometry": {
          "coordinates": [
            -19.558846704590536,
            64.58667610121151
          ],
          "type": "Point"
        },
        "id": 8
      },
      {
        "type": "Feature",
        "properties": {
          "name": "Greenland"
        },
        "geometry": {
          "coordinates": [
            -41.18827090006346,
            74.67303208743505
          ],
          "type": "Point"
        },
        "id": 9
      },
      {
        "type": "Feature",
        "properties": {
          "name": "Canada"
        },
        "geometry": {
          "coordinates": [
            -106.08670055509515,
            55.56699841181489
          ],
          "type": "Point"
        },
        "id": 10
      },
      {
        "type": "Feature",
        "properties": {
          "name": "USA"
        },
        "geometry": {
          "coordinates": [
            -97.16811420048455,
            39.24831030994642
          ],
          "type": "Point"
        },
        "id": 11
      },
      {
        "type": "Feature",
        "properties": {
          "name": "Brazil"
        },
        "geometry": {
          "coordinates": [
            -51.42406031535387,
            -9.611818334307003
          ],
          "type": "Point"
        },
        "id": 12
      },
      {
        "type": "Feature",
        "properties": {
          "name": "Argentina"
        },
        "geometry": {
          "coordinates": [
            -64.65622427407109,
            -36.307233455019166
          ],
          "type": "Point"
        },
        "id": 13
      },
      {
        "type": "Feature",
        "properties": {
          "name": "Portugal"
        },
        "geometry": {
          "coordinates": [
            -8.61337048257522,
            39.582321686846825
          ],
          "type": "Point"
        },
        "id": 14
      },
      {
        "type": "Feature",
        "properties": {
          "name": "Madrid"
        },
        "geometry": {
          "coordinates": [
            -3.035258867866503,
            40.28445342011159
          ],
          "type": "Point"
        },
        "id": 15
      },
      {
        "type": "Feature",
        "properties": {
          "name": "Spain"
        },
        "geometry": {
          "coordinates": [
            -4.119894971340557,
            41.2704503666086
          ],
          "type": "Point"
        },
        "id": 16
      },
      {
        "type": "Feature",
        "properties": {
          "name": "France"
        },
        "geometry": {
          "coordinates": [
            2.558748688432132,
            47.84437890691001
          ],
          "type": "Point"
        },
        "id": 17
      },
      {
        "type": "Feature",
        "properties": {
          "name": "Paris"
        },
        "geometry": {
          "coordinates": [
            2.7476300292316864,
            48.99066855474223
          ],
          "type": "Point"
        },
        "id": 18
      },
      {
        "type": "Feature",
        "properties": {
          "name": "London"
        },
        "geometry": {
          "coordinates": [
            -0.7095083696168274,
            51.38005739592546
          ],
          "type": "Point"
        },
        "id": 19
      },
      {
        "type": "Feature",
        "properties": {
          "name": "Isle of Man TT"
        },
        "geometry": {
          "coordinates": [
            -4.539354154122435,
            54.22857359118035
          ],
          "type": "Point"
        },
        "id": 20
      },
      {
        "type": "Feature",
        "properties": {
          "name": "Belgium"
        },
        "geometry": {
          "coordinates": [
            4.592712806758556,
            50.43121155800711
          ],
          "type": "Point"
        },
        "id": 21
      },
      {
        "type": "Feature",
        "properties": {
          "name": "Luxembourg"
        },
        "geometry": {
          "coordinates": [
            6.07344429635026,
            49.77125945538529
          ],
          "type": "Point"
        },
        "id": 22
      },
      {
        "type": "Feature",
        "properties": {
          "name": "Switzerland"
        },
        "geometry": {
          "coordinates": [
            8.2152738911212,
            46.79205638700071
          ],
          "type": "Point"
        },
        "id": 23
      },
      {
        "type": "Feature",
        "properties": {
          "name": "Milan"
        },
        "geometry": {
          "coordinates": [
            9.170901676643751,
            45.50713856905563
          ],
          "type": "Point"
        },
        "id": 24
      },
      {
        "type": "Feature",
        "properties": {
          "name": "Italy"
        },
        "geometry": {
          "coordinates": [
            12.65713018983854,
            42.50187721129021
          ],
          "type": "Point"
        },
        "id": 25
      },
      {
        "type": "Feature",
        "properties": {
          "name": "Rome"
        },
        "geometry": {
          "coordinates": [
            12.308828637878179,
            41.834314448653885
          ],
          "type": "Point"
        },
        "id": 26
      },
      {
        "type": "Feature",
        "properties": {
          "name": "Germany"
        },
        "geometry": {
          "coordinates": [
            9.993882602750716,
            51.13759960493337
          ],
          "type": "Point"
        },
        "id": 27
      },
      {
        "type": "Feature",
        "properties": {
          "name": "Berlin"
        },
        "geometry": {
          "coordinates": [
            12.911128852922872,
            52.63438723270647
          ],
          "type": "Point"
        },
        "id": 28
      },
      {
        "type": "Feature",
        "properties": {
          "name": "Denmark"
        },
        "geometry": {
          "coordinates": [
            9.824631100532116,
            56.0168311357134
          ],
          "type": "Point"
        },
        "id": 29
      },
      {
        "type": "Feature",
        "properties": {
          "name": "Indonesia"
        },
        "geometry": {
          "coordinates": [
            117.3765397273404,
            -2.304714499633718
          ],
          "type": "Point"
        },
        "id": 30
      },
      {
        "type": "Feature",
        "properties": {
          "name": "Bandung"
        },
        "geometry": {
          "coordinates": [
            107.60485367363299,
            -6.904181953549838
          ],
          "type": "Point"
        },
        "id": 31
      },
      {
        "type": "Feature",
        "properties": {
          "name": "Yogyakarta"
        },
        "geometry": {
          "coordinates": [
            110.36116431309006,
            -7.785098497681233
          ],
          "type": "Point"
        },
        "id": 33
      },
      {
        "type": "Feature",
        "properties": {
          "name": "Kebumen"
        },
        "geometry": {
          "coordinates": [
            109.6476892534846,
            -7.66883683475055
          ],
          "type": "Point"
        },
        "id": 34
      },
      {
        "type": "Feature",
        "properties": {
          "name": "Semarang"
        },
        "geometry": {
          "coordinates": [
            110.41824231785938,
            -6.98635362659212
          ],
          "type": "Point"
        },
        "id": 35
      },
      {
        "type": "Feature",
        "properties": {
          "name": "Surakarta"
        },
        "geometry": {
          "coordinates": [
            110.82287323023542,
            -7.559489968804726
          ],
          "type": "Point"
        },
        "id": 36
      },
      {
        "type": "Feature",
        "properties": {
          "name": "Cikotok"
        },
        "geometry": {
          "coordinates": [
            106.31084052969214,
            -6.849167933825001
          ],
          "type": "Point"
        },
        "id": 37
      },
      {
        "type": "Feature",
        "properties": {
          "name": "Jekardah"
        },
        "geometry": {
          "coordinates": [
            106.83060277748018,
            -6.179190704895802
          ],
          "type": "Point"
        },
        "id": 37
      },
      {
        "type": "Feature",
        "properties": {
          "name": "Bekasi"
        },
        "geometry": {
          "coordinates": [
            106.99268774644139,
            -6.235281901213469
          ],
          "type": "Point"
        },
        "id": 38
      },
      {
        "type": "Feature",
        "properties": {
          "name": "Depok"
        },
        "geometry": {
          "coordinates": [
            106.81521496397204,
            -6.410655412430614
          ],
          "type": "Point"
        },
        "id": 39
      },
      {
        "type": "Feature",
        "properties": {
          "name": "Karawang"
        },
        "geometry": {
          "coordinates": [
            107.30211950960711,
            -6.306788371663529
          ],
          "type": "Point"
        },
        "id": 40
      },
      {
        "type": "Feature",
        "properties": {
          "name": "Palembang"
        },
        "geometry": {
          "coordinates": [
            104.75545370161552,
            -2.983177172088901
          ],
          "type": "Point"
        },
        "id": 41
      },
      {
        "type": "Feature",
        "properties": {
          "name": "Pekanbaru"
        },
        "geometry": {
          "coordinates": [
            101.44659727437431,
            0.5354288753996741
          ],
          "type": "Point"
        },
        "id": 42
      },
      {
        "type": "Feature",
        "properties": {
          "name": "Medan"
        },
        "geometry": {
          "coordinates": [
            98.65968185449509,
            3.599294024745845
          ],
          "type": "Point"
        },
        "id": 43
      },
      {
        "type": "Feature",
        "properties": {
          "name": "Kuala Lumpur"
        },
        "geometry": {
          "coordinates": [
            101.70064615377606,
            3.1462848031051323
          ],
          "type": "Point"
        },
        "id": 44
      },
      {
        "type": "Feature",
        "properties": {
          "name": "Singapore"
        },
        "geometry": {
          "coordinates": [
            103.80527333393042,
            1.3503080311723608
          ],
          "type": "Point"
        },
        "id": 45
      },
      {
        "type": "Feature",
        "properties": {
          "name": "Kalimantan"
        },
        "geometry": {
          "coordinates": [
            114.91263494750808,
            0.46704033466980377
          ],
          "type": "Point"
        },
        "id": 46
      },
      {
        "type": "Feature",
        "properties": {
          "name": "Sulawesi"
        },
        "geometry": {
          "coordinates": [
            121.08570989357656,
            -2.0616023475217986
          ],
          "type": "Point"
        },
        "id": 47
      },
      {
        "type": "Feature",
        "properties": {
          "name": "Beijing"
        },
        "geometry": {
          "coordinates": [
            116.41585766729872,
            39.94987205882947
          ],
          "type": "Point"
        },
        "id": 48
      },
      {
        "type": "Feature",
        "properties": {
          "name": "Busan"
        },
        "geometry": {
          "coordinates": [
            129.0693961335528,
            35.1960359131981
          ],
          "type": "Point"
        },
        "id": 49
      },
      {
        "type": "Feature",
        "properties": {
          "name": "Mexico"
        },
        "geometry": {
          "coordinates": [
            -102.53897214498075,
            23.943206981483073
          ],
          "type": "Point"
        },
        "id": 50
      },
      {
        "type": "Feature",
        "properties": {
          "name": "Colombia"
        },
        "geometry": {
          "coordinates": [
            -73.18618581100353,
            3.057274619116299
          ],
          "type": "Point"
        },
        "id": 51
      },
      {
        "type": "Feature",
        "properties": {
          "name": "Ecuador"
        },
        "geometry": {
          "coordinates": [
            -78.46654224430438,
            -1.1443713349872837
          ],
          "type": "Point"
        },
        "id": 52
      }
    ]
  }